DSM2 ID,CDEC ID,Station Name,subtract,time_window_exclusion_list,agency,in cont repo,,,Elevation,Latitude,Longitude,utm_easting,utm_northing,Calibration Period,Validation Period,Data Availability (cdec_flow_cleaned.dss),Data Availability (2012 Calibration),,,
FPT,FPT,SACRAMENTO RIVER AT FREEPORT,no,,USGS,yes,11447650,,0,38.45,-121.5,630762.5,4257477,2011-2012,2001-2017,1-1-2000-12-31-2019 (Hrly),N-A,,,
RSAC155,FPT,SACRAMENTO RIVER AT FREEPORT,no,,USGS,yes,11447650,,0,38.45,-121.5,630762.5,4257477,2011-2012,2001-2017,1-1-2000-12-31-2019 (Hrly),N-A,,,
SDC,SDC,SACRAMENTO R ABOVE DELTA CROSS CHANNEL,no,,USGS,yes,11447890,,10,38.257,-121.518,629664.2,4235427.1,2011-2012,2001-2017,9-26-2003-12-31-2019 (15min),1-1-2002-1-1-2010 (15min),,,
RSAC128,SDC,SACRAMENTO R ABOVE DELTA CROSS CHANNEL,no,,USGS,yes,11447890,,10,38.257,-121.518,629664.2,4235427.1,2011-2012,2001-2017,9-26-2003-12-31-2019 (15min),1-1-2002-1-1-2010 (15min),,,
CHDCC000,DLC,Delta Cross-Channel,no,"2009-12-15 09:58:00_2010-05-28 10:05:00,2010-06-01 10:01:00_2010-06-04 09:55:00,2010-06-07 10:04:00_2010-06-18 11:04:00,2010-10-13 11:54:00_2010-10-15 12:05:00,2010-11-01 10:24:00_2010-11-04 10:00:00,2010-12-01 10:20:00_2011-07-15 09:55:00,2011-10-04 10:24:00_2011-10-14 11:16:00,2011-12-01 09:19:00_2012-05-25 11:15:00,2012-06-01 17:00:00_2012-06-21 13:00:00,2012-11-27 10:15:00_2013-05-24 09:57:00,2013-05-28 10:50:00_2013-05-31 15:30:00,2013-06-03 11:05:00_2013-06-07 09:32:00,2013-06-10 10:45:00_2013-06-14 10:18:00,2013-10-08 16:08:00_2013-10-10 15:05:00,2013-10-17 09:26:00_2013-10-18 15:00:00,2013-10-21 09:45:00_2013-10-31 10:15:00,2013-11-04 10:00:00_2013-11-08 10:00:00,2013-11-12 10:15:00_2013-11-15 08:45:00,2013-11-18 09:53:00_2013-11-22 12:46:00,2013-11-25 10:05:00_2013-11-27 10:21:00,2013-12-01 11:20:00_2014-02-01 10:19:00,2014-02-10 09:58:00_2014-05-23 10:17:00,2014-05-27 10:55:00_2014-06-06 10:20:00,2014-06-09 10:55:00_2014-06-13 09:58:00,2014-10-28 09:56:00_2014-10-30 10:00:00,2014-11-02 10:01:00_2014-11-07 09:55:00,2014-12-01 09:55:00_2015-05-14 10:15:00,2015-05-18 09:52:00_2015-05-22 09:48:00,2015-05-26 09:50:00_2015-05-29 09:15:00,2015-06-01 10:04:00_2015-06-05 10:00:00,2015-06-08 10:00:00_2015-06-13 09:00:00,2015-06-15 09:54:00_2015-06-16 09:58:00,2015-06-23 10:05:00_2015-06-26 12:15:00,2015-07-20 10:51:00_2015-07-24 12:32:00,2015-08-04 09:40:00_2015-08-07 13:00:00,2015-08-11 09:50:00_2015-08-14 12:20:00,2015-10-29 12:45:00_2015-10-30 11:45:00,2015-11-12 10:00:00_2015-11-13 09:50:00,2015-11-18 10:13:00_2015-11-20 10:01:00,2015-12-01 13:00:00_2015-12-04 15:05:00,2015-12-15 10:45:00_2016-05-27 22:10:00,2016-05-31 13:15:00_2016-06-03 09:00:00,2016-06-06 13:20:00_2016-06-10 09:08:00,2016-06-13 13:00:00_2016-06-18 08:15:00,2016-11-06 10:10:00_2016-11-09 10:46:00,2016-11-12 09:50:00_2016-11-15 10:03:00,2016-11-25 09:51:00_2016-11-29 13:50:00,2016-12-01 09:20:00_2017-06-23 10:05:00,2017-09-18 10:50:00_2017-09-22 11:05:00,2017-09-25 11:07:00_2017-09-29 10:35:00,2017-10-02 10:50:00_2017-10-06 10:35:00,2017-10-09 10:50:00_2017-10-13 10:50:00,2017-10-16 10:54:00_2017-10-20 10:45:00,2017-10-23 10:47:00_2017-10-27 10:40:00,2017-10-30 10:48:00_2017-11-03 10:05:00,2017-11-06 10:10:00_2017-11-10 09:50:00,2017-11-13 10:30:00_2017-11-17 10:00:00,2017-11-24 10:59:00_2018-05-25 09:45:00,2018-05-29 10:50:00_2018-06-01 09:35:00,2018-06-04 10:50:00_2018-06-08 10:15:00,2018-06-11 11:00:00_2018-06-15 10:01:00,2018-11-05 10:49:00_2018-11-09 09:55:00,2018-11-13 10:50:00_2018-11-16 10:11:00,2018-11-19 10:51:00_2018-11-21 10:02:00,2018-11-30 10:02:00_2019-06-21 09:45:00,2019-10-23 09:45:00_2019-10-26 10:05:00,2019-12-01 00:01:00_2020-05-22 09:53:00,2020-05-26 10:00:00_2020-05-30 10:00:00,2020-06-01 10:00:00_2020-06-06 10:00:00,2020-06-08 10:50:00_2020-06-12 09:50:00,2020-10-13 17:00:00_2020-10-17 09:40:00,2020-10-20 16:50:00_2020-10-24 09:41:00,2020-10-28 16:50:00_2020-10-31 08:10:00,2020-11-02 10:52:00_2020-11-06 09:37:00,2020-11-09 10:37:00_2020-11-13 09:45:00,2020-11-16 10:20:00_2020-11-25 09:55:00,2020-12-01 10:15:00_2021-05-05 11:28:00,2021-05-05 11:55:00_2021-05-05 12:29:00,2021-05-05 12:55:00_2021-05-05 13:20:00,2021-05-05 13:45:00_2021-06-04 10:33:00,2021-06-07 09:38:00_2021-06-16 09:27:00,2021-06-29 09:55:00_2021-07-02 09:25:00",USGS,,,,,,,630802.2,4234030.6,,,,,,,
DLC,DLC,Delta Cross-Channel,no,"2009-12-15 09:58:00_2010-05-28 10:05:00,2010-06-01 10:01:00_2010-06-04 09:55:00,2010-06-07 10:04:00_2010-06-18 11:04:00,2010-10-13 11:54:00_2010-10-15 12:05:00,2010-11-01 10:24:00_2010-11-04 10:00:00,2010-12-01 10:20:00_2011-07-15 09:55:00,2011-10-04 10:24:00_2011-10-14 11:16:00,2011-12-01 09:19:00_2012-05-25 11:15:00,2012-06-01 17:00:00_2012-06-21 13:00:00,2012-11-27 10:15:00_2013-05-24 09:57:00,2013-05-28 10:50:00_2013-05-31 15:30:00,2013-06-03 11:05:00_2013-06-07 09:32:00,2013-06-10 10:45:00_2013-06-14 10:18:00,2013-10-08 16:08:00_2013-10-10 15:05:00,2013-10-17 09:26:00_2013-10-18 15:00:00,2013-10-21 09:45:00_2013-10-31 10:15:00,2013-11-04 10:00:00_2013-11-08 10:00:00,2013-11-12 10:15:00_2013-11-15 08:45:00,2013-11-18 09:53:00_2013-11-22 12:46:00,2013-11-25 10:05:00_2013-11-27 10:21:00,2013-12-01 11:20:00_2014-02-01 10:19:00,2014-02-10 09:58:00_2014-05-23 10:17:00,2014-05-27 10:55:00_2014-06-06 10:20:00,2014-06-09 10:55:00_2014-06-13 09:58:00,2014-10-28 09:56:00_2014-10-30 10:00:00,2014-11-02 10:01:00_2014-11-07 09:55:00,2014-12-01 09:55:00_2015-05-14 10:15:00,2015-05-18 09:52:00_2015-05-22 09:48:00,2015-05-26 09:50:00_2015-05-29 09:15:00,2015-06-01 10:04:00_2015-06-05 10:00:00,2015-06-08 10:00:00_2015-06-13 09:00:00,2015-06-15 09:54:00_2015-06-16 09:58:00,2015-06-23 10:05:00_2015-06-26 12:15:00,2015-07-20 10:51:00_2015-07-24 12:32:00,2015-08-04 09:40:00_2015-08-07 13:00:00,2015-08-11 09:50:00_2015-08-14 12:20:00,2015-10-29 12:45:00_2015-10-30 11:45:00,2015-11-12 10:00:00_2015-11-13 09:50:00,2015-11-18 10:13:00_2015-11-20 10:01:00,2015-12-01 13:00:00_2015-12-04 15:05:00,2015-12-15 10:45:00_2016-05-27 22:10:00,2016-05-31 13:15:00_2016-06-03 09:00:00,2016-06-06 13:20:00_2016-06-10 09:08:00,2016-06-13 13:00:00_2016-06-18 08:15:00,2016-11-06 10:10:00_2016-11-09 10:46:00,2016-11-12 09:50:00_2016-11-15 10:03:00,2016-11-25 09:51:00_2016-11-29 13:50:00,2016-12-01 09:20:00_2017-06-23 10:05:00,2017-09-18 10:50:00_2017-09-22 11:05:00,2017-09-25 11:07:00_2017-09-29 10:35:00,2017-10-02 10:50:00_2017-10-06 10:35:00,2017-10-09 10:50:00_2017-10-13 10:50:00,2017-10-16 10:54:00_2017-10-20 10:45:00,2017-10-23 10:47:00_2017-10-27 10:40:00,2017-10-30 10:48:00_2017-11-03 10:05:00,2017-11-06 10:10:00_2017-11-10 09:50:00,2017-11-13 10:30:00_2017-11-17 10:00:00,2017-11-24 10:59:00_2018-05-25 09:45:00,2018-05-29 10:50:00_2018-06-01 09:35:00,2018-06-04 10:50:00_2018-06-08 10:15:00,2018-06-11 11:00:00_2018-06-15 10:01:00,2018-11-05 10:49:00_2018-11-09 09:55:00,2018-11-13 10:50:00_2018-11-16 10:11:00,2018-11-19 10:51:00_2018-11-21 10:02:00,2018-11-30 10:02:00_2019-06-21 09:45:00,2019-10-23 09:45:00_2019-10-26 10:05:00,2019-12-01 00:01:00_2020-05-22 09:53:00,2020-05-26 10:00:00_2020-05-30 10:00:00,2020-06-01 10:00:00_2020-06-06 10:00:00,2020-06-08 10:50:00_2020-06-12 09:50:00,2020-10-13 17:00:00_2020-10-17 09:40:00,2020-10-20 16:50:00_2020-10-24 09:41:00,2020-10-28 16:50:00_2020-10-31 08:10:00,2020-11-02 10:52:00_2020-11-06 09:37:00,2020-11-09 10:37:00_2020-11-13 09:45:00,2020-11-16 10:20:00_2020-11-25 09:55:00,2020-12-01 10:15:00_2021-05-05 11:28:00,2021-05-05 11:55:00_2021-05-05 12:29:00,2021-05-05 12:55:00_2021-05-05 13:20:00,2021-05-05 13:45:00_2021-06-04 10:33:00,2021-06-07 09:38:00_2021-06-16 09:27:00,2021-06-29 09:55:00_2021-07-02 09:25:00",USGS,,,,,,,630802.2,4234030.6,,,,,,,
GES,GES,SACRAMENTO RIVER BELOW GEORGIANA SLOUGH,no,,USGS,yes,11447905,,0,38.2389,-121.5234,629219.1,4233351.8,2011-2012,2001-2017,5-17-2006-12-31-2019 (15min),5-1-2006-2-1-2010 (15min),,,
RSAC123,GES,SACRAMENTO RIVER BELOW GEORGIANA SLOUGH,no,,USGS,yes,11447905,,0,38.2389,-121.5234,629219.1,4233351.8,2011-2012,2001-2017,5-17-2006-12-31-2019 (15min),5-1-2006-2-1-2010 (15min),,,
SRV,SRV,SACRAMENTO RIVER AT RIO VISTA (USGS),no,,USGS,yes,11455420,,0,38.16,-121.686,614797.6,4223035.8,2011-2012,2001-2017,10-5-2003-12-31-2019 (15min),12-1-2002-1-1-2010 (15min),,,
RSAC101,SRV,SACRAMENTO RIVER AT RIO VISTA (USGS),no,,USGS,yes,11455420,,0,38.16,-121.686,614797.6,4223035.8,2011-2012,2001-2017,10-5-2003-12-31-2019 (15min),12-1-2002-1-1-2010 (15min),,,
BDT,BDT,SAN JOAQUIN R AT BRANDT BRIDGE,no,,DWR-NCRO,yes,,,0,37.865,-121.3231,647500.8,4192114.6,2011-2012,2001-2017,1-2-2008-12-31-2019 (15min),1-1-2008-2-1-2010 (15min),,,
RSAN072,BDT,SAN JOAQUIN R AT BRANDT BRIDGE,no,,DWR-NCRO,yes,,,0,37.865,-121.3231,647500.8,4192114.6,2011-2012,2001-2017,1-2-2008-12-31-2019 (15min),1-1-2008-2-1-2010 (15min),,,
RRI,RRI,ROUGH AND READY ISLAND,no,2016-01-30 14:00:00_2016-08-20 21:00:00,DWR-NCRO,to 2018,,,15,37.963,-121.365,643575.2,4202944.9,2011-2012,2001-2017,8-28-2000-8-10-2018 (15min),8-1-2000-1-1-2010 (15min),,,
RSAN058,RRI,ROUGH AND READY ISLAND,no,2016-01-30 14:00:00_2016-08-20 21:00:00,DWR-NCRO,to 2018,,,15,37.963,-121.365,643575.2,4202944.9,2011-2012,2001-2017,8-28-2000-8-10-2018 (15min),8-1-2000-1-1-2010 (15min),,,
TSL,TSL,THREEMILE SLOUGH AT SAN JOAQUIN RIVER,no,,USGS,yes,11337080,,10,38.1033,-121.6861,615196.3,4218095.3,2011-2012,2001-2017,10-5-2003-12-31-2019 (15min),12-1-2002-1-1-2010 (15min),,,
SLTRM004,TSL,THREEMILE SLOUGH AT SAN JOAQUIN RIVER,no,,USGS,yes,11337080,,10,38.1033,-121.6861,615196.3,4218095.3,2011-2012,2001-2017,10-5-2003-12-31-2019 (15min),12-1-2002-1-1-2010 (15min),,,
JER,SJJ,SAN JOAQUIN RIVER AT JERSEY POINT (USGS),no,,USGS,yes,11337190,,10,38.052,-121.689,615029,4212420.9,2011-2012,2001-2017,10-12-2004-12-31-2019 (15min),1-1-2002-1-1-2010 (15min),,,
RSAN018,SJJ,SAN JOAQUIN RIVER AT JERSEY POINT (USGS),no,,USGS,yes,11337190,,10,38.052,-121.689,615029,4212420.9,2011-2012,2001-2017,10-12-2004-12-31-2019 (15min),1-1-2002-1-1-2010 (15min),,,
OH1,OH1,OLD RIVER AT HEAD,no,"2010-12-22 00:00:00_2011-08-03 00:00:00,2016-03-12 10:45:00_2016-04-03 23:30:00,2017-01-06 00:00:00_2017-08-14 00:00:00",DWR-NCRO,yes,,,15,37.80755,-121.3312531,647096.2,4185827.7,2011-2012,2001-2017,2-2-2000-12-31-2019 (15min),2-1-2000-1-1-2010 (15min),,,
ROLD074,OH1,OLD RIVER AT HEAD,no,"2010-12-22 00:00:00_2011-08-03 00:00:00,2016-03-12 10:45:00_2016-04-03 23:30:00,2017-01-06 00:00:00_2017-08-14 00:00:00",DWR-NCRO,yes,,,15,37.80755,-121.3312531,647096.2,4185827.7,2011-2012,2001-2017,2-2-2000-12-31-2019 (15min),2-1-2000-1-1-2010 (15min),,,
OH4,OH4,OLD RIVER AT HIGHWAY 4,no,,USGS,yes,11313315,,10,37.89111,-121.569168,625718.9,4194688.9,2011-2012,2001-2017,10-5-2003-12-31-2019 (15min),10-1-2003-1-1-2010 (15min),,,
ROLD034,OH4,OLD RIVER AT HIGHWAY 4,no,,USGS,yes,11313315,,10,37.89111,-121.569168,625718.9,4194688.9,2011-2012,2001-2017,10-5-2003-12-31-2019 (15min),10-1-2003-1-1-2010 (15min),,,
OBI,OBI,OLD RIVER AT BACON ISLAND (USGS),no,,USGS,yes,11313405,,10,37.96937,-121.5722198,625222.5,4203213.9,2011-2012,2001-2017,10-5-2003-12-31-2019 (15min),12-1-2002-1-1-2010 (15min),,,
ROLD024,OBI,OLD RIVER AT BACON ISLAND (USGS),no,,USGS,yes,11313405,,10,37.96937,-121.5722198,625222.5,4203213.9,2011-2012,2001-2017,10-5-2003-12-31-2019 (15min),12-1-2002-1-1-2010 (15min),,,
HLT,HLT,MIDDLE RIVER NEAR HOLT,no,,USGS,yes,11312685,,0,38.0031,-121.5108,630737.3,4207200.2,2011-2012,2001-2017,5-31-2007-12-31-2019 (15min),6-1-2006-2-1-2010 (15min),,,
HLT,HLT,MIDDLE RIVER NEAR HOLT,no,,USGS,yes,11312685,,0,38.0031,-121.5108,630737.3,4207200.2,2011-2012,2001-2017,5-31-2007-12-31-2019 (15min),6-1-2006-2-1-2010 (15min),,,
#GCT,GCT,Grant Line Canal at Tracy Boulevard Bridge,no,,,,,no data in 8.3 calibration period,,,NO FLOW DATA ,636454.1,4186988.1,,,,,,,
#CHGRL009,GCT,Grant Line Canal at Tracy Boulevard Bridge,no,,,,,,,,NO FLOW DATA ,636454.1,4186988.1,,,,,,,
GSS,GSS,GEORGIANA SLOUGH AT SACRAMENTO RIVER,no,,USGS,yes,11447903,,10,38.237,-121.518,629727.3,4233179.3,2011-2012,2001-2017,9-19-2003-12-31-2019 (15min),1-1-2003-2-1-2010 (15min),,,
Georg_Sl,GSS,GEORGIANA SLOUGH AT SACRAMENTO RIVER,no,,USGS,yes,11447903,,10,38.237,-121.518,629727.3,4233179.3,2011-2012,2001-2017,9-19-2003-12-31-2019 (15min),1-1-2003-2-1-2010 (15min),,,
DSJ,DSJ,DUTCH SLOUGH AT JERSEY ISLAND,no,,USGS,yes,11313433,,10,38.013,-121.671,616676.6,4208098.2,2011-2012,2001-2017,9-19-2003-12-31-2019 (15min),12-1-2002-11-1-2009 (15min),,,
SLDUT007,DSJ,DUTCH SLOUGH AT JERSEY ISLAND,no,,USGS,yes,11313433,,10,38.013,-121.671,616676.6,4208098.2,2011-2012,2001-2017,9-19-2003-12-31-2019 (15min),12-1-2002-11-1-2009 (15min),,,
NSL,NSL,NATIONAL STEEL,no,,DWR-NCRO-DES,yes,,,0,38.1221,-121.8881,597451.6,4219938,2011-2012,2001-2017,1-16-2008-12-31-2019 (15min),1-1-2008-6-1-2010 (15min),,,
SLMZU025,NSL,NATIONAL STEEL,no,,DWR-NCRO-DES,yes,,,0,38.1221,-121.8881,597451.6,4219938,2011-2012,2001-2017,1-16-2008-12-31-2019 (15min),1-1-2008-6-1-2010 (15min),,,
FAL,FAL,FALSE RIVER NEAR OAKLEY,no,2015-10-06 12:30:00_2015-10-16 05:00:00,USGS,starts at 2006,11313440,,0,38.0558,-121.6669,616952.5,4212848.6,2011-2012,2001-2017,8-9-2007-12-31-2019 (15min),2-1-2007-2-1-2010 (15min),,,
#FCT,FCT,FISHERMANS CUT,no,,DWR-NCRO,yes,,NO data in v8.2 calibration perio,4,38.06782,-121.648838,618521.7,4214201.8,2011-2012,2001-2017,6-24-2015-12-32-2009,N-A,,,
HOL,HOL,HOLLAND CUT NEAR BETHEL ISLAND,no,2010-10-03 10:30:00_2014-12-30 12:15:00,USGS,starts at 2006,11313431,,0,38.0164,-121.5819,624476.9,4208582.2,2011-2012,2001-2017,10-23-2007-12-31-2019 (15min),6-1-2006-2-1-2010 (15min),,,
HWB,HWB,MINER SLOUGH AT HWY 84 BRIDGE,no,2015-06-20 23:45:00_2015-08-15 22:30:00,USGS,starts at 2003,11455165,,0,38.2917,-121.6308,619734.2,4239063.4,2011-2012,2001-2017,12-31-2005-12-31-2019 (15min),12-1-2002-2-1-2010 (15min),,,
MOK,MOK,MOKELUMNE R AT SAN JOAQUIN RIVER,no,,USGS,starts at 2006,11336930,,0,38.1061,-121.5711,625274.8,4218552.5,2011-2012,2001-2017,2-9-2007-12-31-2019 (15min),2-1-2007-2-1-2010 (15min),,,
PDC,PDC,PARADISE CUT,no,,DWR-NCRO,start at 2014,,NO data in v8.2 calibration perio,8,37.80206,-121.4122564,639778,4185041,2011-2012,2001-2017,4-16-2014-12-31-2019,N-A,,,
SSS,SSS,STEAMBOAT SLOUGH BTW SAC R AND SUTTER SL,no,"2014-06-15 00:45:00_2014-11-07 21:45:00,2015-06-18 08:15:00_2015-10-03 06:30:00",USGS,yes,11447850,,10,38.285,-121.587,623598.2,4238356.2,2011-2012,2001-2017,9-26-2003-12-31-2019 (15min),1-1-2002-1-1-2010 (15min),,,No data in 8.3 calibration period
SUT,SUT,SUTTER SLOUGH AT COURTLAND,no,,USGS,starts at 2003,11447830,,0,38.3286,-121.5772,624348.3,4243212.4,2011-2012,2001-2017,12-11-2006-12-31-2019 (15min),1-1-2002-1-1-2010 (15min),,,
TRN,TRN,TURNER CUT NEAR HOLT,no,,USGS,starts at 2005,11311300,,0,37.9928,-121.4542,635762.3,4206110.6,2011-2012,2001-2017,12-31-2005-12-31-2019 (15min),12-1-2002-1-1-2010 (15min),,,
VCU,-VCU,VICTORIA CANAL NEAR BYRON,no,,USGS,starts at 2005,11312672,,0,37.8717,-121.5283,629291.6,4192502.2,2011-2012,2001-2017,2-15-2006-12-31-2019 (15min),12-1-2002-1-1-2010 (15min),,,
CHVCT000,-VCU,VICTORIA CANAL NEAR BYRON,no,,USGS,starts at 2005,11312672,,0,37.8717,-121.5283,629291.6,4192502.2,2011-2012,2001-2017,2-15-2006-12-31-2019 (15min),12-1-2002-1-1-2010 (15min),,,
SDC-GES,SDC-GES,Cross Delta Flow (RSAC128 - RSAC123),yes,,,,,,,,,629664.2,4235427.1,,,,,,,
RSAC128-RSAC123,SDC-GES,Cross Delta Flow (RSAC128 - RSAC123),yes,,,,,,,,,629664.2,4235427.1,,,,,,,
ROLD059,OLD,Old River at Tracy Road, no,,37.80472564,-121.4495285,636491.6,4185281.5,,,,636491.6,4185281.5,,,,,,,
